{
  "campi": [
    {"nome": "Reitoria - Salvador", "lat": -12.9735, "lng": -38.4418},
    {"nome": "Campus Alagoinhas", "lat": -12.1384, "lng": -38.4168},
    {"nome": "Campus Bom Jesus da Lapa", "lat": -13.2629, "lng": -43.5470},
    {"nome": "Campus Catu", "lat": -12.3508, "lng": -38.3784},
    {"nome": "Campus Governador Mangabeira", "lat": -12.5638, "lng": -39.0284},
    {"nome": "Campus Guanambi", "lat": -14.2238, "lng": -42.7844},
    {"nome": "Campus Itaberaba", "lat": -12.5278, "lng": -40.3068},
    {"nome": "Campus Itapetinga", "lat": -15.2494, "lng": -40.2484},
    {"nome": "Campus Santa Inês", "lat": -13.2985, "lng": -39.7226},
    {"nome": "Campus Senhor do Bonfim", "lat": -10.4578, "lng": -40.1878},
    {"nome": "Campus Serrinha", "lat": -11.6695, "lng": -39.0116},
    {"nome": "Campus Teixeira de Freitas", "lat": -17.5459, "lng": -39.7239},
    {"nome": "Campus Uruçuca", "lat": -14.5933, "lng": -39.2800},
    {"nome": "Campus Valença", "lat": -13.3735, "lng": -39.0834},
    {"nome": "Campus Xique-Xique", "lat": -9.5261, "lng": -43.6041},
    {"nome": "Campus Santo Estêvão", "lat": -12.4303, "lng": -39.2514},
    {"nome": "Campus Remanso", "lat": -9.6200, "lng": -42.0800},
    {"nome": "Campus Ruy Barbosa", "lat": -12.2837, "lng": -40.4897},
    {"nome": "Campus Ribeira do Pombal", "lat": -10.8344, "lng": -38.5358}
  ],
  "postos": [
    {"nome": "Posto Goldi Fleet - Salvador (BR-324 Km 9)", "lat": -12.9125, "lng": -38.4333, "rodovia": "BR-324"},
    {"nome": "Posto Goldi Fleet - Simões Filho (BR-324 Km 18)", "lat": -12.7933, "lng": -38.3986, "rodovia": "BR-324"},
    {"nome": "Posto Goldi Fleet - Amélia Rodrigues (BR-324 Km 58)", "lat": -12.4344, "lng": -38.7567, "rodovia": "BR-324"},
    {"nome": "Posto Goldi Fleet - Feira de Santana (BR-324 Km 98)", "lat": -12.2688, "lng": -38.9244, "rodovia": "BR-324"},
    {"nome": "Posto Goldi Fleet - Humildes (BR-101)", "lat": -12.3556, "lng": -38.8922, "rodovia": "BR-101"},
    {"nome": "Posto Goldi Fleet - Alagoinhas (BR-101)", "lat": -12.1450, "lng": -38.4230, "rodovia": "BR-101"},
    {"nome": "Posto Goldi Fleet - Santo Antônio de Jesus (BR-101)", "lat": -12.9788, "lng": -39.2564, "rodovia": "BR-101"},
    {"nome": "Posto Goldi Fleet - Valença (BA-001)", "lat": -13.3680, "lng": -39.0780, "rodovia": "BA-001"},
    {"nome": "Posto Goldi Fleet - Cruz das Almas (BR-101)", "lat": -12.6780, "lng": -39.1020, "rodovia": "BR-101"},
    {"nome": "Posto Goldi Fleet - Itaberaba (BR-242)", "lat": -12.5240, "lng": -40.3040, "rodovia": "BR-242"},
    {"nome": "Posto Goldi Fleet - Lençóis (BR-242)", "lat": -12.5610, "lng": -41.3880, "rodovia": "BR-242"},
    {"nome": "Posto Goldi Fleet - Barreiras (BR-242)", "lat": -12.1460, "lng": -44.9910, "rodovia": "BR-242"},
    {"nome": "Posto Goldi Fleet - Luís Eduardo Magalhães (BR-020)", "lat": -12.0910, "lng": -45.7920, "rodovia": "BR-020"},
    {"nome": "Posto Goldi Fleet - Posse GO (BR-020)", "lat": -14.0930, "lng": -46.3680, "rodovia": "BR-020"},
    {"nome": "Posto Goldi Fleet - Formosa GO (BR-020)", "lat": -15.5390, "lng": -47.3340, "rodovia": "BR-020"},
    {"nome": "Posto Goldi Fleet - Milagres (BR-116)", "lat": -12.8756, "lng": -39.8656, "rodovia": "BR-116"},
    {"nome": "Posto Goldi Fleet - Jequié (BR-116)", "lat": -13.8640, "lng": -40.0840, "rodovia": "BR-116"},
    {"nome": "Posto Goldi Fleet - Vitória da Conquista (BR-116)", "lat": -14.8620, "lng": -40.8380, "rodovia": "BR-116"},
    {"nome": "Posto Goldi Fleet - Senhor do Bonfim (BR-407)", "lat": -10.4550, "lng": -40.1850, "rodovia": "BR-407"},
    {"nome": "Posto Goldi Fleet - Juazeiro (BR-407)", "lat": -9.4210, "lng": -40.4980, "rodovia": "BR-407"},
    {"nome": "Posto Goldi Fleet - Serrinha (BR-116 Norte)", "lat": -11.6680, "lng": -38.9950, "rodovia": "BR-116"}
  ]
}
